<?xml version="1.0" encoding="UTF-8"?>
<kml xmlns="http://www.opengis.net/kml/2.2">
  <Document>
    <name>台中市停管處黃先生恥辱柱 中市交停管字第1110071254號公告</name>
    <Style id="icon-1538-E65100-normal">
      <IconStyle>
        <color>ff0051e6</color>
        <scale>1</scale>
        <Icon>
          <href>https://www.gstatic.com/mapspro/images/stock/503-wht-blank_maps.png</href>
        </Icon>
      </IconStyle>
      <LabelStyle>
        <scale>0</scale>
      </LabelStyle>
    </Style>
    <Style id="icon-1538-E65100-highlight">
      <IconStyle>
        <color>ff0051e6</color>
        <scale>1</scale>
        <Icon>
          <href>https://www.gstatic.com/mapspro/images/stock/503-wht-blank_maps.png</href>
        </Icon>
      </IconStyle>
      <LabelStyle>
        <scale>1</scale>
      </LabelStyle>
    </Style>
    <StyleMap id="icon-1538-E65100">
      <Pair>
        <key>normal</key>
        <styleUrl>#icon-1538-E65100-normal</styleUrl>
      </Pair>
      <Pair>
        <key>highlight</key>
        <styleUrl>#icon-1538-E65100-highlight</styleUrl>
      </Pair>
    </StyleMap>
    <Placemark>
      <name>(--)東勢立體停車場</name>
      <description><![CDATA[中市交停管字第1110071254號公告禁止<br>6/1被議員關切後會勘前趕快開放]]></description>
      <styleUrl>#icon-1538-E65100</styleUrl>
      <Point>
        <coordinates>
          120.8284669,24.2556596,0
        </coordinates>
      </Point>
    </Placemark>
    <Placemark>
      <name>(--)府後街地下停車場</name>
      <description><![CDATA[中市交停管字第1110071254號公告禁止<br>6/1被議員關切後會勘前趕快開放]]></description>
      <styleUrl>#icon-1538-E65100</styleUrl>
      <Point>
        <coordinates>
          120.675085,24.136244,0
        </coordinates>
      </Point>
    </Placemark>
    <Placemark>
      <name>(--)臺中市政府陽明市政大樓</name>
      <description><![CDATA[中市交停管字第1110071254號公告禁止<br>6/1被議員關切後會勘前趕快開放]]></description>
      <styleUrl>#icon-1538-E65100</styleUrl>
      <Point>
        <coordinates>
          120.7206228,24.2467384,0
        </coordinates>
      </Point>
    </Placemark>
    <Placemark>
      <name>(--)萬壽棒球場附地下停車場</name>
      <description><![CDATA[中市交停管字第1110071254號公告禁止<br>6/1被議員關切後會勘前趕快開放]]></description>
      <styleUrl>#icon-1538-E65100</styleUrl>
      <Point>
        <coordinates>
          120.6500356,24.14613,0
        </coordinates>
      </Point>
    </Placemark>
    <Placemark>
      <name>(--)干城停車場</name>
      <description><![CDATA[中市交停管字第1110071254號公告禁止<br>6/1被議員關切後會勘前趕快開放]]></description>
      <styleUrl>#icon-1538-E65100</styleUrl>
      <Point>
        <coordinates>
          120.6881618,24.1431557,0
        </coordinates>
      </Point>
    </Placemark>
    <Placemark>
      <name>(--)台中市南京路立體停車場</name>
      <description><![CDATA[地「上」層禁止通行<br>中市交停管字第1110071254號公告禁止<br>6/1被議員關切後會勘前趕快開放]]></description>
      <styleUrl>#icon-1538-E65100</styleUrl>
      <Point>
        <coordinates>
          120.6906821,24.1401194,0
        </coordinates>
      </Point>
    </Placemark>
    <Placemark>
      <name>(--)健康公園附屬停車場</name>
      <description><![CDATA[中市交停管字第1110071254號公告禁止<br>6/1被議員關切後會勘前趕快開放]]></description>
      <styleUrl>#icon-1538-E65100</styleUrl>
      <Point>
        <coordinates>
          120.6698232,24.1209849,0
        </coordinates>
      </Point>
    </Placemark>
    <Placemark>
      <name>(--)福星立體停車場</name>
      <description><![CDATA[中市交停管字第1110071254號公告禁止<br>6/1被議員關切後會勘前趕快開放]]></description>
      <styleUrl>#icon-1538-E65100</styleUrl>
      <Point>
        <coordinates>
          120.6460473,24.1756356,0
        </coordinates>
      </Point>
    </Placemark>
    <Placemark>
      <name>(--)逢甲夜市-星享道公有停車場</name>
      <description><![CDATA[禁止地「上」層通行<br>中市交停管字第1110071254號公告禁止<br>6/1被議員關切後會勘前趕快開放]]></description>
      <styleUrl>#icon-1538-E65100</styleUrl>
      <Point>
        <coordinates>
          120.6455327,24.1831811,0
        </coordinates>
      </Point>
    </Placemark>
    <Placemark>
      <name>(--)大雅區停四停車場</name>
      <description><![CDATA[中市交停管字第1110071254號公告禁止<br>6/1被議員關切後會勘前趕快開放]]></description>
      <styleUrl>#icon-1538-E65100</styleUrl>
      <Point>
        <coordinates>
          120.6563338,24.2258824,0
        </coordinates>
      </Point>
    </Placemark>
    <Placemark>
      <name>(--)臺中中央公園</name>
      <description><![CDATA[禁止地「上」層通行<br>中市交停管字第1110071254號公告禁止<br>6/1被議員關切後會勘前趕快開放]]></description>
      <styleUrl>#icon-1538-E65100</styleUrl>
      <Point>
        <coordinates>
          120.6533544,24.1857375,0
        </coordinates>
      </Point>
    </Placemark>
    <Placemark>
      <name>(--)大墩國中地下停車場</name>
      <description><![CDATA[中市交停管字第1110071254號公告禁止<br>6/1被議員關切後會勘前趕快開放]]></description>
      <styleUrl>#icon-1538-E65100</styleUrl>
      <Point>
        <coordinates>
          120.6392109,24.1453796,0
        </coordinates>
      </Point>
    </Placemark>
    <Placemark>
      <name>(--)太平區中興立體停車場</name>
      <description><![CDATA[中市交停管字第1110071254號公告禁止<br>6/1被議員關切後會勘前趕快開放]]></description>
      <styleUrl>#icon-1538-E65100</styleUrl>
      <Point>
        <coordinates>
          120.720663,24.1306369,0
        </coordinates>
      </Point>
    </Placemark>
    <Placemark>
      <name>(--)大雅公有停一停車場</name>
      <description><![CDATA[中市交停管字第1110071254號公告禁止<br>6/1被議員關切後會勘前趕快開放]]></description>
      <styleUrl>#icon-1538-E65100</styleUrl>
      <Point>
        <coordinates>
          120.6472334,24.2238616,0
        </coordinates>
      </Point>
    </Placemark>
    <Placemark>
      <name>(--)阿罩霧本堂公園</name>
      <description><![CDATA[中市交停管字第1110071254號公告禁止<br>6/1被議員關切後會勘前趕快開放]]></description>
      <styleUrl>#icon-1538-E65100</styleUrl>
      <Point>
        <coordinates>
          120.6982218,24.0600898,0
        </coordinates>
      </Point>
    </Placemark>
    <Placemark>
      <name>(--)文昌地下停車場</name>
      <description><![CDATA[中市交停管字第1110071254號公告禁止<br>6/1被議員關切後會勘前趕快開放]]></description>
      <styleUrl>#icon-1538-E65100</styleUrl>
      <Point>
        <coordinates>
          120.6247834,24.3484998,0
        </coordinates>
      </Point>
    </Placemark>
  </Document>
</kml>
